{
  "type": "map",
  "maps": [
    {
      "text": "PAK",
      "size": 1.0,
      "country": "Pakistan",
      "city": "Sialkot",
      "lat": "32.492015",
      "lng": "74.548655"
    },
    {
      "text": "UAE",
      "size": 1.0,
      "country": "United Arab Emirates",
      "city": "Dubai",
      "lat": "25.117384",
      "lng": "55.132645"
    },
    {
      "text": "UAE",
      "size": 1.0,
      "country": "United Arab Emirates",
      "city": "Makkah",
      "lat": "21.42250429816996",
      "lng": "39.82615788289537"
    },
    {
      "text": "UAE",
      "size": 1.0,
      "country": "United Arab Emirates",
      "city": "Madina",
      "lat": "24.467519",
      "lng": "39.611278"
    },
    {
      "text": "USA",
      "size": 1.0,
      "country": "United States of America",
      "city": "New York",
      "lat": "40.713318",
      "lng": "-73.998978"
    },
    {
      "text": "UK",
      "size": 1.0,
      "country": "United Kingdom",
      "city": "London",
      "lat": "51.507723841601795",
      "lng": " -0.12788270052065245"
    },
    {
      "text": "Japan",
      "size": 1.0,
      "country": "Japan",
      "city": "Tokyo",
      "lat": "35.67779620592785",
      "lng": " 139.76565283877895"
    },
    {
      "text": "Japan",
      "size": 1.0,
      "country": "Japan",
      "city": "Kyoto",
      "lat": "35.28324004959577",
      "lng": "135.5048074623012"
    },
    {
      "text": "Turkiye",
      "size": 1.0,
      "country": "Turkiye",
      "city": "Istanbul",
      "lat": "41.0470789350849",
      "lng": "29.03468039377529"
    },
    {
      "text": "France",
      "size": 1.0,
      "country": "France",
      "city": "Paris",
      "lat": "48.85855686963322",
      "lng": " 2.2945136971142017"
    },
    {
      "text": "New Zealand",
      "size": 1.0,
      "country": "New Zealand",
      "city": "Hanmar Springs",
      "lat": "-42.52569218104257",
      "lng": " 172.828865661006"
    },
    {
      "text": "Bangladesh",
      "size": 1.0,
      "country": "Bangladesh",
      "city": "Dhaka",
      "lat": "23.810440460145593",
      "lng": " 90.41258093113005"
    },
    {
      "text": "Spain",
      "size": 1.0,
      "country": "Spain",
      "city": "Barcelona",
      "lat": "41.40370438214791",
      "lng": " 2.174088377585877"
    },
    {
      "text": "Itly",
      "size": 1.0,
      "country": "Itly",
      "city": "Rome",
      "lat": "41.8945359410895",
      "lng": " 12.482956310312623"
    },
    {
      "text": "Canada",
      "size": 1.0,
      "country": "Canada",
      "city": "Niagra Falls",
      "lat": "43.07527991269738",
      "lng": "-79.06879172782482"
    },
    {
      "text": "Australia",
      "size": 1.0,
      "country": "Australia",
      "city": "Perth",
      "lat": "-31.9525193866145",
      "lng": "115.86186518523245"
    },
    {
      "text": "Malaysia",
      "size": 1.0,
      "country": "Malaysia",
      "city": "Kuala Lumpur",
      "lat": "3.1228804659689637",
      "lng": "101.68774249268438"
    },
    {
      "text": "India",
      "size": 1.0,
      "country": "India",
      "city": "Chennai",
      "lat": "13.082624005312823",
      "lng": "80.27106362029615"
    },
    {
      "text": "Yemen",
      "size": 1.0,
      "country": "Yemen",
      "city": "Sana'a",
      "lat": "15.36959526115816",
      "lng": "44.19130073735284"
    },
    {
      "text": "Nigeria",
      "size": 1.0,
      "country": "Nigeria",
      "city": "Abuja",
      "lat": "9.07921291278433",
      "lng": "7.400431293445461"
    },
    {
      "text": "Brazil",
      "size": 1.0,
      "country": "Brazil",
      "city": "Brasilia",
      "lat": "-15.797145415807751",
      "lng": "-47.892200612268226"
    }
  ]
}
